[
  {
    "id": 1,
    "title": "信義區精美2房1廳 近101大樓",
    "price": 45000,
    "size_ping": 25.5,
    "address": "台北市信義區基隆路一段147號",
    "district": "信義區",
    "city": "台北市",
    "coordinates": [121.5654, 25.0330],
    "commute_time": 12
  },
  {
    "id": 2,
    "title": "大安區溫馨1房 近捷運站",
    "price": 28000,
    "size_ping": 12.8,
    "address": "台北市大安區復興南路二段106號",
    "district": "大安區",
    "city": "台北市",
    "coordinates": [121.5437, 25.0267],
    "commute_time": 8
  },
  {
    "id": 3,
    "title": "中山區現代3房2廳 採光佳",
    "price": 55000,
    "size_ping": 35.2,
    "address": "台北市中山區南京東路二段123號",
    "district": "中山區",
    "city": "台北市",
    "coordinates": [121.5322, 25.0520],
    "commute_time": 18
  },
  {
    "id": 4,
    "title": "松山區雅房出租 包水電",
    "price": 15000,
    "size_ping": 8.5,
    "address": "台北市松山區八德路四段320號",
    "district": "松山區",
    "city": "台北市",
    "coordinates": [121.5786, 25.0493],
    "commute_time": 25
  },
  {
    "id": 5,
    "title": "內湖區新裝潢套房 近科學園區",
    "price": 22000,
    "size_ping": 10.5,
    "address": "台北市內湖區內湖路一段285號",
    "district": "內湖區",
    "city": "台北市",
    "coordinates": [121.5747, 25.0829],
    "commute_time": 30
  },
  {
    "id": 6,
    "title": "士林區寬敞4房 適合分租",
    "price": 48000,
    "size_ping": 42.0,
    "address": "台北市士林區中山北路六段290號",
    "district": "士林區",
    "city": "台北市",
    "coordinates": [121.5255, 25.0969],
    "commute_time": 35
  },
  {
    "id": 7,
    "title": "萬華區老公寓2房 價格實惠",
    "price": 18000,
    "size_ping": 20.0,
    "address": "台北市萬華區廣州街125號",
    "district": "萬華區",
    "city": "台北市",
    "coordinates": [121.5008, 25.0335],
    "commute_time": 22
  },
  {
    "id": 8,
    "title": "大同區傳統三合院改建",
    "price": 32000,
    "size_ping": 28.5,
    "address": "台北市大同區重慶北路二段198號",
    "district": "大同區",
    "city": "台北市",
    "coordinates": [121.5138, 25.0630],
    "commute_time": 15
  },
  {
    "id": 9,
    "title": "中正區古典雅致2房 近總統府",
    "price": 38000,
    "size_ping": 22.8,
    "address": "台北市中正區重慶南路一段86號",
    "district": "中正區",
    "city": "台北市",
    "coordinates": [121.5118, 25.0424],
    "commute_time": 10
  },
  {
    "id": 10,
    "title": "文山區學生套房 近政大",
    "price": 16000,
    "size_ping": 9.2,
    "address": "台北市文山區指南路二段117號",
    "district": "文山區",
    "city": "台北市",
    "coordinates": [121.5832, 24.9876],
    "commute_time": 40
  },
  {
    "id": 11,
    "title": "南港區新成屋3房 近高鐵站",
    "price": 42000,
    "size_ping": 32.5,
    "address": "台北市南港區經貿二路188號",
    "district": "南港區",
    "city": "台北市",
    "coordinates": [121.6167, 25.0553],
    "commute_time": 28
  },
  {
    "id": 12,
    "title": "北投區溫泉套房 享受泡湯樂趣",
    "price": 26000,
    "size_ping": 15.5,
    "address": "台北市北投區光明路220號",
    "district": "北投區",
    "city": "台北市",
    "coordinates": [121.5081, 25.1315],
    "commute_time": 45
  },
  {
    "id": 13,
    "title": "新北市板橋區豪華3房2廳",
    "price": 35000,
    "size_ping": 30.0,
    "address": "新北市板橋區文化路一段188號",
    "district": "板橋區",
    "city": "新北市",
    "coordinates": [121.4627, 25.0138],
    "commute_time": 25
  },
  {
    "id": 14,
    "title": "新北市中和區電梯大樓2房",
    "price": 24000,
    "size_ping": 18.5,
    "address": "新北市中和區中正路389號",
    "district": "中和區",
    "city": "新北市",
    "coordinates": [121.4989, 24.9989],
    "commute_time": 20
  },
  {
    "id": 15,
    "title": "新北市永和區便宜套房",
    "price": 14000,
    "size_ping": 8.0,
    "address": "新北市永和區中山路一段162號",
    "district": "永和區",
    "city": "新北市",
    "coordinates": [121.5159, 25.0104],
    "commute_time": 18
  },
  {
    "id": 16,
    "title": "新北市新店區山景別墅",
    "price": 65000,
    "size_ping": 55.0,
    "address": "新北市新店區北新路三段125號",
    "district": "新店區",
    "city": "新北市",
    "coordinates": [121.5376, 24.9678],
    "commute_time": 35
  },
  {
    "id": 17,
    "title": "新北市三重區工業區附近套房",
    "price": 12000,
    "size_ping": 7.5,
    "address": "新北市三重區重新路四段98號",
    "district": "三重區",
    "city": "新北市",
    "coordinates": [121.4857, 25.0732],
    "commute_time": 30
  },
  {
    "id": 18,
    "title": "新北市蘆洲區捷運旁公寓",
    "price": 19000,
    "size_ping": 12.0,
    "address": "新北市蘆洲區中正路278號",
    "district": "蘆洲區",
    "city": "新北市",
    "coordinates": [121.4741, 25.0849],
    "commute_time": 26
  },
  {
    "id": 19,
    "title": "新北市汐止區科技園區附近",
    "price": 20000,
    "size_ping": 14.2,
    "address": "新北市汐止區新台五路一段99號",
    "district": "汐止區",
    "city": "新北市",
    "coordinates": [121.6422, 25.0676],
    "commute_time": 32
  },
  {
    "id": 20,
    "title": "新北市淡水區河景豪宅",
    "price": 45000,
    "size_ping": 38.5,
    "address": "新北市淡水區中正東路二段68號",
    "district": "淡水區",
    "city": "新北市",
    "coordinates": [121.4444, 25.1678],
    "commute_time": 50
  },
  {
    "id": 21,
    "title": "桃園市桃園區近火車站套房",
    "price": 11000,
    "size_ping": 6.8,
    "address": "桃園市桃園區復興路186號",
    "district": "桃園區",
    "city": "桃園市",
    "coordinates": [121.3009, 24.9890],
    "commute_time": 55
  },
  {
    "id": 22,
    "title": "桃園市中壢區工業區宿舍",
    "price": 9000,
    "size_ping": 5.5,
    "address": "桃園市中壢區中豐路南段390號",
    "district": "中壢區",
    "city": "桃園市",
    "coordinates": [121.2168, 24.9537],
    "commute_time": 65
  },
  {
    "id": 23,
    "title": "信義區頂級公寓 近市政府",
    "price": 88000,
    "size_ping": 45.8,
    "address": "台北市信義區松仁路100號",
    "district": "信義區",
    "city": "台北市",
    "coordinates": [121.5676, 25.0369],
    "commute_time": 5
  },
  {
    "id": 24,
    "title": "大安區巷弄小資套房",
    "price": 21000,
    "size_ping": 11.5,
    "address": "台北市大安區永康街25號",
    "district": "大安區",
    "city": "台北市",
    "coordinates": [121.5297, 25.0265],
    "commute_time": 15
  },
  {
    "id": 25,
    "title": "中山區商辦大樓住宅",
    "price": 52000,
    "size_ping": 28.0,
    "address": "台北市中山區松江路168號",
    "district": "中山區",
    "city": "台北市",
    "coordinates": [121.5334, 25.0566],
    "commute_time": 12
  },
  {
    "id": 26,
    "title": "松山區饒河夜市旁雅房",
    "price": 13000,
    "size_ping": 7.8,
    "address": "台北市松山區饒河街201號",
    "district": "松山區",
    "city": "台北市",
    "coordinates": [121.5771, 25.0514],
    "commute_time": 22
  },
  {
    "id": 27,
    "title": "內湖區科技大樓員工宿舍",
    "price": 18000,
    "size_ping": 9.5,
    "address": "台北市內湖區瑞光路76號",
    "district": "內湖區",
    "city": "台北市",
    "coordinates": [121.5681, 25.0805],
    "commute_time": 28
  },
  {
    "id": 28,
    "title": "士林區陽明山景觀屋",
    "price": 38000,
    "size_ping": 32.2,
    "address": "台北市士林區至善路三段150號",
    "district": "士林區",
    "city": "台北市",
    "coordinates": [121.5552, 25.1127],
    "commute_time": 42
  },
  {
    "id": 29,
    "title": "萬華區龍山寺附近老屋",
    "price": 15000,
    "size_ping": 15.0,
    "address": "台北市萬華區廣州街308號",
    "district": "萬華區",
    "city": "台北市",
    "coordinates": [121.4999, 25.0368],
    "commute_time": 20
  },
  {
    "id": 30,
    "title": "大同區迪化街文青套房",
    "price": 25000,
    "size_ping": 13.5,
    "address": "台北市大同區迪化街一段121號",
    "district": "大同區",
    "city": "台北市",
    "coordinates": [121.5102, 25.0567],
    "commute_time": 16
  }
] 